{
  "type": "FeatureCollection",
  "features": [
    {
      "type": "Feature",
      "geometry": {
        "type": "Point",
        "coordinates": [
          16.937915,
          48.215384
        ]
      },
      "properties": {
        "name": "Schloss Hof",
        "url": "https://stream1.panomax.com/camera-7823/live.m3u8",
        "city": "",
        "country_code": "XX",
        "environment": "city",
        "timezone": ""
      }
    },
    {
      "type": "Feature",
      "geometry": {
        "type": "Point",
        "coordinates": [
          13.244226,
          47.302219
        ]
      },
      "properties": {
        "name": "SNOW SPACE SALZBURG - Snowpark",
        "url": "https://stream1.panomax.com/camera-9110/live.m3u8",
        "city": "",
        "country_code": "XX",
        "environment": "city",
        "timezone": ""
      }
    },
    {
      "type": "Feature",
      "geometry": {
        "type": "Point",
        "coordinates": [
          13.320368,
          47.329759
        ]
      },
      "properties": {
        "name": "SNOW SPACE SALZBURG - woom bike area",
        "url": "https://stream1.panomax.com/camera-9105/live.m3u8",
        "city": "",
        "country_code": "XX",
        "environment": "city",
        "timezone": ""
      }
    },
    {
      "type": "Feature",
      "geometry": {
        "type": "Point",
        "coordinates": [
          14.936958,
          47.225431
        ]
      },
      "properties": {
        "name": "Gr\u00f6ndahlhaus - St. Margarethen",
        "url": "https://stream1.panomax.com/camera-5665/live.m3u8",
        "city": "",
        "country_code": "XX",
        "environment": "city",
        "timezone": ""
      }
    },
    {
      "type": "Feature",
      "geometry": {
        "type": "Point",
        "coordinates": [
          14.878574,
          47.063315
        ]
      },
      "properties": {
        "name": "Salzstiegl - Moasterhaus",
        "url": "https://stream1.panomax.com/camera-9250/live.m3u8",
        "city": "",
        "country_code": "XX",
        "environment": "city",
        "timezone": ""
      }
    }
  ]
}